[{
        "name": "Birmingham",
        "loc": {
            "lat": 33.448064,
            "lon": -86.730121
        },
        "colour": "green"
    },
    {
        "name": "Huntsville",
        "loc": {
            "lat": 34.714167,
            "lon": -86.672799
        },
        "colour": "green"
    },
    {
        "name": "Irvine",
        "loc": {
            "lat": 33.650230,
            "lon": -117.743294
        },
        "colour": "green"
    },
    {
        "name": "Los Gatos",
        "loc": {
            "lat": 37.204667,
            "lon": -121.949957
        },
        "colour": "red"
    },
    {
        "name": "Manhattan Beach, Manhattan Village",
        "loc": {
            "lat": 33.898559,
            "lon": -118.394366
        },
        "colour": "red"
    },
    {
        "name": "Newport Beach, Fashion Island",
        "loc": {
            "lat": 33.615886,
            "lon": -117.875847
        },
        "colour": "red"
    },
    {
        "name": "Northridge, Northridge",
        "loc": {
            "lat": 34.238125,
            "lon": -118.530123
        },
        "colour": "red"
    },
    {
        "name": "Palm Desert, El Paseo Village",
        "loc": {
            "lat": 33.719821,
            "lon": -116.384664
        },
        "colour": "blue"
    },
    {
        "name": "Palo Alto",
        "loc": {
            "lat": 37.441883,
            "lon": -122.143019
        },
        "colour": "blue"
    }
]